[
  {"xid":"heritage-001","name":"Piazza San Marco","category":"Living Heritage","era":"Renaissance (1500s)","lat":45.4340,"lon":12.3390,"elevation_cm":50},
  {"xid":"heritage-002","name":"Basilica di San Marco","category":"Churches","era":"Byzantine (Pre-1300)","lat":45.4345,"lon":12.3392,"elevation_cm":52},
  {"xid":"heritage-003","name":"Campanile di San Marco","category":"Churches","era":"Byzantine (Pre-1300)","lat":45.4343,"lon":12.3395,"elevation_cm":53},
  {"xid":"heritage-004","name":"Palazzo Ducale","category":"Palaces","era":"Gothic (1300-1400s)","lat":45.4339,"lon":12.3393,"elevation_cm":54},
  {"xid":"heritage-005","name":"Bridge of Sighs","category":"Infrastructure","era":"Gothic (1300-1400s)","lat":45.4338,"lon":12.3390,"elevation_cm":55},
  {"xid":"heritage-006","name":"Rialto Bridge","category":"Infrastructure","era":"Renaissance (1500s)","lat":45.4380,"lon":12.3358,"elevation_cm":58},
  {"xid":"heritage-007","name":"Ca' d'Oro","category":"Palaces","era":"Gothic (1300-1400s)","lat":45.4379,"lon":12.3331,"elevation_cm":65},
  {"xid":"heritage-008","name":"Scuola Grande di San Rocco","category":"Churches","era":"Baroque (1600s+)","lat":45.4370,"lon":12.3344,"elevation_cm":68},
  {"xid":"heritage-009","name":"Santa Maria della Salute","category":"Churches","era":"Baroque (1600s+)","lat":45.4319,"lon":12.3358,"elevation_cm":60},
  {"xid":"heritage-010","name":"Peggy Guggenheim Collection","category":"Living Heritage","era":"Baroque (1600s+)","lat":45.4315,"lon":12.3325,"elevation_cm":96},
  {"xid":"heritage-011","name":"Gallerie dell'Accademia","category":"Living Heritage","era":"Renaissance (1500s)","lat":45.4332,"lon":12.3357,"elevation_cm":92},
  {"xid":"heritage-012","name":"Palazzo Grassi","category":"Palaces","era":"Baroque (1600s+)","lat":45.4383,"lon":12.3354,"elevation_cm":75},
  {"xid":"heritage-013","name":"Teatro La Fenice","category":"Living Heritage","era":"Baroque (1600s+)","lat":45.4317,"lon":12.3331,"elevation_cm":70},
  {"xid":"heritage-014","name":"Ca' Rezzonico","category":"Palaces","era":"Baroque (1600s+)","lat":45.4353,"lon":12.3343,"elevation_cm":78},
  {"xid":"heritage-015","name":"Ponte dell'Accademia","category":"Infrastructure","era":"Renaissance (1500s)","lat":45.4325,"lon":12.3347,"elevation_cm":82},
  {"xid":"heritage-016","name":"Santa Maria Gloriosa dei Frari","category":"Churches","era":"Gothic (1300-1400s)","lat":45.4341,"lon":12.3359,"elevation_cm":88},
  {"xid":"heritage-017","name":"Chiesa di San Zaccaria","category":"Churches","era":"Gothic (1300-1400s)","lat":45.4331,"lon":12.3380,"elevation_cm":58},
  {"xid":"heritage-018","name":"Scuola Grande di San Giovanni Evangelista","category":"Churches","era":"Renaissance (1500s)","lat":45.4374,"lon":12.3350,"elevation_cm":90},
  {"xid":"heritage-019","name":"Palazzo Contarini del Bovolo","category":"Palaces","era":"Renaissance (1500s)","lat":45.4355,"lon":12.3350,"elevation_cm":72},
  {"xid":"heritage-020","name":"Libreria Acqua Alta","category":"Living Heritage","era":"Baroque (1600s+)","lat":45.4322,"lon":12.3385,"elevation_cm":94},
  {"xid":"heritage-021","name":"Campo San Polo","category":"Living Heritage","era":"Gothic (1300-1400s)","lat":45.4371,"lon":12.3330,"elevation_cm":72},
  {"xid":"heritage-022","name":"Mercato di Rialto","category":"Living Heritage","era":"Renaissance (1500s)","lat":45.4381,"lon":12.3355,"elevation_cm":62},
  {"xid":"heritage-023","name":"Museo Correr","category":"Living Heritage","era":"Renaissance (1500s)","lat":45.4338,"lon":12.3384,"elevation_cm":66},
  {"xid":"heritage-024","name":"Palazzo Mocenigo","category":"Palaces","era":"Renaissance (1500s)","lat":45.4348,"lon":12.3258,"elevation_cm":82},
  {"xid":"heritage-025","name":"Chiesa di San Giorgio Maggiore","category":"Churches","era":"Renaissance (1500s)","lat":45.4303,"lon":12.3415,"elevation_cm":62},
  {"xid":"heritage-026","name":"Sant'Elena Church","category":"Churches","era":"Baroque (1600s+)","lat":45.4375,"lon":12.3486,"elevation_cm":76},
  {"xid":"heritage-027","name":"Arsenale Historic Gate","category":"Infrastructure","era":"Gothic (1300-1400s)","lat":45.4372,"lon":12.3528,"elevation_cm":85},
  {"xid":"heritage-028","name":"Ponte dei Tre Archi","category":"Infrastructure","era":"Gothic (1300-1400s)","lat":45.4370,"lon":12.3336,"elevation_cm":78},
  {"xid":"heritage-029","name":"Fondaco dei Tedeschi","category":"Living Heritage","era":"Renaissance (1500s)","lat":45.4380,"lon":12.3359,"elevation_cm":72},
  {"xid":"heritage-030","name":"Palazzo Pisani Moretta","category":"Palaces","era":"Baroque (1600s+)","lat":45.4334,"lon":12.3368,"elevation_cm":68},
  {"xid":"heritage-031","name":"Santa Maria Formosa","category":"Churches","era":"Renaissance (1500s)","lat":45.4361,"lon":12.3391,"elevation_cm":57},
  {"xid":"heritage-032","name":"Ca' d'Oro Gardens","category":"Living Heritage","era":"Renaissance (1500s)","lat":45.4377,"lon":12.3330,"elevation_cm":64},
  {"xid":"heritage-033","name":"San Moisè Church","category":"Churches","era":"Baroque (1600s+)","lat":45.4385,"lon":12.3376,"elevation_cm":53},
  {"xid":"heritage-034","name":"Palazzo Manfrin","category":"Palaces","era":"Baroque (1600s+)","lat":45.4337,"lon":12.3352,"elevation_cm":70},
  {"xid":"heritage-035","name":"Campo Santo Stefano","category":"Living Heritage","era":"Renaissance (1500s)","lat":45.4370,"lon":12.3363,"elevation_cm":69},
  {"xid":"heritage-036","name":"Ponte dei Pugni","category":"Infrastructure","era":"Renaissance (1500s)","lat":45.4352,"lon":12.3353,"elevation_cm":80},
  {"xid":"heritage-037","name":"Chiesa dei Santi Giovanni e Paolo","category":"Churches","era":"Gothic (1300-1400s)","lat":45.4384,"lon":12.3434,"elevation_cm":73},
  {"xid":"heritage-038","name":"Palazzo Bonvicini","category":"Palaces","era":"Gothic (1300-1400s)","lat":45.4372,"lon":12.3338,"elevation_cm":77},
  {"xid":"heritage-039","name":"Scuola Grande dei Carmini","category":"Churches","era":"Baroque (1600s+)","lat":45.4310,"lon":12.3319,"elevation_cm":74},
  {"xid":"heritage-040","name":"Ponte dei Sospiri East","category":"Infrastructure","era":"Gothic (1300-1400s)","lat":45.4337,"lon":12.3391,"elevation_cm":56},
  {"xid":"heritage-041","name":"Palazzo Malipiero","category":"Palaces","era":"Baroque (1600s+)","lat":45.4369,"lon":12.3379,"elevation_cm":86},
  {"xid":"heritage-042","name":"Chiesa di San Vidal","category":"Churches","era":"Baroque (1600s+)","lat":45.4376,"lon":12.3349,"elevation_cm":61},
  {"xid":"heritage-043","name":"Ponte de la Paglia","category":"Infrastructure","era":"Renaissance (1500s)","lat":45.4336,"lon":12.3392,"elevation_cm":59},
  {"xid":"heritage-044","name":"Palazzo Barbarigo","category":"Palaces","era":"Baroque (1600s+)","lat":45.4350,"lon":12.3361,"elevation_cm":66},
  {"xid":"heritage-045","name":"Scuola Grande di Santa Maria della Carità","category":"Living Heritage","era":"Renaissance (1500s)","lat":45.4410,"lon":12.3295,"elevation_cm":103},
  {"xid":"heritage-046","name":"Church of San Polo","category":"Churches","era":"Gothic (1300-1400s)","lat":45.4373,"lon":12.3322,"elevation_cm":64},
  {"xid":"heritage-047","name":"Palazzo Bembo","category":"Palaces","era":"Renaissance (1500s)","lat":45.4384,"lon":12.3353,"elevation_cm":67},
  {"xid":"heritage-048","name":"Church of Santa Maria dei Miracoli","category":"Churches","era":"Renaissance (1500s)","lat":45.4387,"lon":12.3397,"elevation_cm":66},
  {"xid":"heritage-049","name":"Ponte dell'Angelo","category":"Infrastructure","era":"Baroque (1600s+)","lat":45.4362,"lon":12.3318,"elevation_cm":83},
  {"xid":"heritage-050","name":"Palazzo Vendramin Grimani","category":"Palaces","era":"Baroque (1600s+)","lat":45.4381,"lon":12.3357,"elevation_cm":71},
  {"xid":"heritage-051","name":"Scuola Grande dei Carmini Canal","category":"Living Heritage","era":"Baroque (1600s+)","lat":45.4309,"lon":12.3321,"elevation_cm":78},
  {"xid":"heritage-052","name":"Chiesa di San Francesco della Vigna","category":"Churches","era":"Renaissance (1500s)","lat":45.4515,"lon":12.3468,"elevation_cm":104},
  {"xid":"heritage-053","name":"Palazzo Vendramin-Calergi","category":"Palaces","era":"Renaissance (1500s)","lat":45.4374,"lon":12.3337,"elevation_cm":68},
  {"xid":"heritage-054","name":"Campo Santa Margherita","category":"Living Heritage","era":"Baroque (1600s+)","lat":45.4347,"lon":12.3265,"elevation_cm":88},
  {"xid":"heritage-055","name":"Ponte della Costituzione","category":"Infrastructure","era":"Baroque (1600s+)","lat":45.4391,"lon":12.3321,"elevation_cm":70},
  {"xid":"heritage-056","name":"Church of San Sebastiano","category":"Churches","era":"Renaissance (1500s)","lat":45.4364,"lon":12.3353,"elevation_cm":76},
  {"xid":"heritage-057","name":"Palazzo Grassi Canal","category":"Palaces","era":"Baroque (1600s+)","lat":45.4385,"lon":12.3353,"elevation_cm":74},
  {"xid":"heritage-058","name":"Scala Contarini del Bovolo","category":"Living Heritage","era":"Renaissance (1500s)","lat":45.4356,"lon":12.3351,"elevation_cm":69},
  {"xid":"heritage-059","name":"Ponte degli Scalzi","category":"Infrastructure","era":"Renaissance (1500s)","lat":45.4342,"lon":12.3353,"elevation_cm":61},
  {"xid":"heritage-060","name":"Basilica di San Pietro di Castello","category":"Churches","era":"Gothic (1300-1400s)","lat":45.4377,"lon":12.3427,"elevation_cm":80}
]
